id,category,author,name,address,lat,lng,status,rating,opened,planned,organisation_id
73919,6.25,1087,Партизанович,"рядом с проспект Газеты Звязда, 17",53.86928558,27.47457886,5,0,2017-05-01 2017,2018-09-01,134
73942,11.99,26767,Илона,"улица Никифорова, 17",53.94125366,27.69062042,5,0,2017-05-01 2017,2018-08-31,127
74010,6.25,38029,Владимир,"улица Рафиева, 90",53.85979462,27.43367004,5,0,2017-05-01 2017,2018-09-01,134
74075,6.25,35578,Дмитрий,"рядом с улица Лещинского, 17",53.91065979,27.45073128,5,0,2017-05-01 2017,2018-12-01,139
74110,11.94,26073,Андрей,"улица Космонавтов, 17",53.85145569,27.46486282,5,0,2017-05-02 2017,2018-11-30,124
74124,20.293,9027,Елена,проспект Независимости 169f,53.94423676,27.66860199,5,0,2017-05-01 2017,2018-09-30,137
74125,20.293,9027,Елена,проспект Независимости 169f,53.94429779,27.66781807,5,0,2017-05-01 2017,2018-11-20,137
74127,20.283,12251,Антон,vulica Prytyckaha 29,53.90836334,27.48411179,5,0,2017-05-01 2017,2018-09-30,145
74170,6.26,1223,Михаил,"рядом с 3-я улица Щорса, 6",53.88299179,27.51334763,7,0,2017-05-02 2017,2019-04-30,134
74188,11.94,21211,Сергей,"Минск,  Козыревская улица,  22",53.86671448,27.56518936,5,0,2017-05-02 2017,2018-07-25,123
74288,11.98,39603,Андрей,"Фабричная улица, 25",53.88605499,27.59132004,5,0,2017-05-02 2017,2018-09-30,123
74299,20.293,1126,Александр,"рядом с Городецкая улица, 70",53.94811249,27.66736031,5,0,2017-05-02 2017,2018-08-31,147
74321,11.98,39603,Андрей,"улица Судмалиса, 26",53.89040756,27.58947372,5,0,2017-05-02 2017,2018-08-25,123
74356,11.99,36578,Andrey,"улица Бельского, 8",53.90649796,27.47928429,5,0,2017-05-02 2017,2018-09-30,129
74371,20.293,40143,Игорь,"рядом с улица Якубовского, 66",53.89025497,27.45504761,5,0,2017-05-02 2017,2018-11-01,150
74501,20.283,16392,Павел,vulica Kasmanaŭtaŭ 33,53.84851456,27.45603752,5,0,2017-05-03 2017,2018-11-02,157
74502,20.293,16392,Павел,vulica Jasienina 19б,53.84989166,27.45935059,5,0,2017-05-03 2017,2018-09-30,157
74508,21.299,40381,Анатолий,"рядом с Долгобродская улица, 53",53.87775040,27.62897110,5,0,2017-05-03 2017,2019-06-29,182
74510,20.294,14785,Антон,улица Колесникова 26Минск,53.92111206,27.43795395,5,0,2017-05-03 2017,2019-12-01,150
74516,11.100,27832,Андрей,"улица Одоевского, 44",53.90364838,27.48532486,5,0,2017-05-03 2017,2018-10-31,234
74520,20.293,16392,Павел,vulica Slabadskaja 163,53.84470367,27.46605873,5,0,2017-05-03 2017,2018-10-30,157
74521,20.293,16392,Павел,vulica Slabadskaja 151,53.84485245,27.45943260,5,0,2017-05-03 2017,2018-11-30,157
74570,11.103,7256,Владимир,"проспект Независимости, 131 к1",53.93318558,27.64361191,5,0,2017-05-03 2017,2018-12-21,137
74591,20.293,40402,Егор,"рядом с проспект Дзержинского, 11",53.88858414,27.52054214,5,0,2017-05-03 2017,2018-10-31,157
74593,20.286,15318,Иван,"рядом с Автодоровская улица, 3",53.87592697,27.52200317,7,0,2017-05-03 2017,2020-06-30,177
74639,9.55,25447,Ирина,"улица Никифорова, 8",53.93819809,27.69011307,5,0,2017-05-04 2017,2018-07-12,72
74710,20.294,703,Евгений,улица Платонова 45Минск,53.91274643,27.59925270,5,0,2017-05-04 2017,2018-11-30,147
74713,20.291,3331,Александр,"рядом с проспект Независимости, 154",53.93801880,27.67385483,5,0,2017-05-04 2017,2018-08-01,137
74797,6.36,18722,Владимир,"рядом с улица Нестерова, 53 к3",53.88615036,27.68391228,5,0,2017-05-04 2017,2018-10-31,122
74804,20.280,5999,Фёдор,"рядом с проспект Газеты Правда, 60 к2",53.85824585,27.47220802,5,0,2017-05-04 2017,2018-09-01,134
74850,11.99,12832,Екатерина,"Минск,  улица Максима Богдановича,  53",53.91873932,27.56444931,5,0,2017-05-04 2017,2018-09-30,128
74918,20.281,12776,Иван,переулок Софьи Ковалевской 24Минск,53.87031937,27.51373482,5,0,2017-05-05 2017,2018-11-15,134
74930,6.25,8352,Уладзімір,"Разинская улица, 64",53.88298798,27.52170563,5,0,2017-05-05 2017,2018-12-01,134
74931,6.370,40462,екатерина,"улица Карвата, 17",53.91069031,27.67286682,5,0,2017-05-05 2017,2018-10-31,126
74940,6.25,40163,Петр,"Ташкентская улица, 24 к3",53.84637451,27.63453293,5,0,2017-05-05 2017,2018-09-10,132
74971,20.293,16392,Павел,vulica Jasienina 23/1,53.85067368,27.45591736,5,0,2017-05-05 2017,2018-07-30,157
74982,20.294,122,Наблюдает,"ул. Городской Вал 9, Минск, Беларусь",53.90026855,27.55123329,5,0,2017-05-05 2017,2018-10-31,157
74984,20.286,1409,Евгений,"рядом с улица Матусевича, 53А",53.91587067,27.44608307,5,0,2017-05-05 2017,2018-12-31,130
74996,20.294,842,Siarhei,улица Чижевских 17Минск,53.85071182,27.57153511,5,0,2017-05-05 2017,2018-09-28,253
74997,20.294,842,Siarhei,переулок ЧижевскихМинск,53.84830093,27.57016754,5,0,2017-05-05 2017,2018-12-25,161
75032,20.293,527,Вадзім,"рядом с улица Чюрлёниса, 24",53.85345840,27.48758125,5,0,2017-05-05 2017,2019-05-31,157
75037,20.293,527,Вадзім,"рядом с Каролинская улица, 14",53.85323334,27.49302483,5,0,2017-05-05 2017,2019-05-31,157
75057,6.26,17871,Алексей,"улица Карла Либкнехта, 133",53.89154434,27.50782394,5,0,2017-05-05 2017,2018-06-30,188
75098,6.25,4756,Роман,переулок Корженевского 2аМинск,53.84534073,27.52537727,5,0,2017-05-05 2017,2018-09-14,135
75120,6.25,24732,Андрей,улица Яна Чечота 23-25Минск,53.84694672,27.48643303,5,0,2017-05-05 2017,2019-02-01,134
75130,20.283,9140,Андрей,проезд Клубный 3,53.88478088,27.59305000,5,0,2017-05-05 2017,2018-11-05,133
75147,6.26,9140,Андрей,Партизанский проспект 29а,53.88345337,27.59689140,5,0,2017-05-05 2017,2018-12-31,123
75151,20.296,12251,Антон,vulica Bieĺskaha 19,53.90425873,27.48173904,5,0,2017-05-05 2017,2018-10-19,145
75233,6.37,26258,Александра,улица Шаранговича 52Минск,53.88193893,27.43512726,5,0,2017-05-06 2017,2019-06-30,129
75235,6.25,40467,Евгения,улица Скрипникова 10Минск,53.89110947,27.42213631,5,0,2017-05-06 2017,2018-10-01,139
75261,6.25,1551,Елена,улица Романовская Слобода 3аМинск,53.90199280,27.54728889,5,0,2017-05-06 2017,2018-12-01,134
75279,20.294,668,Андрей,"рядом с улица Платонова, 40",53.91436386,27.60343552,5,0,2017-05-06 2017,2019-12-31,147
75280,20.294,668,Андрей,"рядом с улица Платонова, 32",53.91215134,27.59858513,5,0,2017-05-06 2017,2018-11-30,147
75281,20.294,668,Андрей,"рядом с улица Платонова, 24",53.91132355,27.59685135,5,0,2017-05-06 2017,2019-06-30,147
75304,6.36,40561,Виктория,"улица Гинтовта, 32",53.95227432,27.68425941,5,0,2017-05-07 2017,2018-08-22,127
75334,20.294,13264,Артур,проспект Жукова 44Минск,53.87717819,27.51923180,5,0,2017-05-06 2017,2018-12-31,157
75428,20.294,842,Siarhei,улица Ванеева 46Минск,53.87687302,27.58420944,5,0,2017-05-07 2017,2018-12-10,161
75459,6.25,24732,Андрей,улица Яна Чечота 23Минск,53.84759521,27.48724365,5,0,2017-05-07 2017,2018-09-01,134
75460,20.293,19987,Сергей,улица НебеснаяМинск,53.95056915,27.66819382,5,0,2017-05-07 2017,2018-11-02,147
75492,20.280,8212,Иван,улица Белецкого 2Минск,53.85855484,27.46999741,5,0,2017-05-08 2017,2018-09-01,134
75499,20.293,19987,Сергей,улица НебеснаяМинск,53.94986343,27.66869926,5,0,2017-05-08 2017,2018-08-20,147
75500,20.293,19987,Сергей,улица НебеснаяМинск,53.94961548,27.66909599,5,0,2017-05-08 2017,2018-08-20,147
75519,20.296,17804,Аляксандр,"рядом с улица Калиновского, 107",53.94472885,27.64260674,5,0,2017-05-08 2017,2018-11-25,146
75523,6.36,17804,Аляксандр,"рядом с улица Гинтовта, 32",53.95180893,27.68445587,5,0,2017-05-08 2017,2018-09-22,127
75571,6.25,2515,Алексей,улица Рафиева 83Минск,53.86072540,27.44042206,7,0,2017-05-08 2017,2019-04-30,134
75578,20.294,9463,Сергей,"ул. Слободская 128, Минск, Беларусь",53.84909439,27.44140816,5,0,2017-05-08 2017,2018-11-09,157
75580,20.294,9463,Сергей,"Слободской пр. 18, Минск, Беларусь",53.85140610,27.44703293,5,0,2017-05-08 2017,2018-06-30,157
75581,20.294,9463,Сергей,"ул. Есенина 35/1, Минск, Беларусь",53.85266876,27.44938469,5,0,2017-05-08 2017,2018-12-29,157
75583,6.25,4756,Роман,улица Есенина 143Минск,53.86461258,27.42918968,7,0,2017-05-08 2017,2019-04-30,134
75604,6.25,17990,Елена,"Новинковская улица, 4",53.95799255,27.53860283,5,0,2017-05-09 2017,2018-09-01,242
75612,20.286,8719,Виктор,"рядом с проспект Независимости, 31А",53.90647888,27.57037544,5,0,2017-05-09 2017,2018-10-30,177
75627,6.37,169,Евгений,"рядом с улица Пономаренко, 24",53.89546967,27.48822403,5,0,2017-05-09 2017,2018-07-26,234
75721,20.294,2537,Андрей,лобанка 14,53.90421677,27.43422127,5,0,2017-05-09 2017,2018-08-23,139
75778,6.26,2249,Владислав,улица Лермонтова 24,53.88801956,27.51682281,7,0,2017-05-10 2017,2019-03-01,134
75794,20.293,39603,Андрей,"рядом с Восточный переулок, 82",53.93836212,27.59502602,5,0,2017-05-10 2017,2018-11-01,159
75800,6.37,16392,Павел,vulica Kurhannaja 2,53.85272217,27.46558380,5,0,2017-05-10 2017,2018-07-21,157
75805,6.37,11185,Maksim,проспект Любимова 15/2Минск,53.85842514,27.46461105,5,0,2017-05-10 2017,2018-09-30,124
75819,6.37,22095,Оксана,улица Никифорова 41Минск 220141,53.94193649,27.69513130,5,0,2017-05-10 2017,2019-12-16,127
75832,6.25,5999,Фёдор,"рядом с улица Космонавтов, 7 к1",53.85368729,27.46924019,5,0,2017-05-10 2017,2019-02-01,134
75833,6.25,5999,Фёдор,"рядом с улица Космонавтов, 7 к1",53.85396957,27.47064209,5,0,2017-05-10 2017,2019-02-01,134
75871,6.26,169,Евгений,"рядом с улица Янки Мавра, 68В",53.89547729,27.49047852,5,0,2017-05-10 2017,2018-08-01,129
75907,6.37,32520,Александр,"Минск,  Фабричная улица,  16",53.88664627,27.58613014,5,0,2017-05-10 2017,2018-09-30,123
76001,6.37,94,Сергей,улица Воронянского 7а,53.87812042,27.54319572,5,0,2017-05-11 2017,2017-05-23,135
76035,20.280,5999,Фёдор,"рядом с проспект Любимова, 7",53.85816193,27.46988106,5,0,2017-05-11 2017,2018-09-01,134
76036,20.280,5999,Фёдор,"рядом с проспект Любимова, 7",53.85804749,27.46983528,5,0,2017-05-11 2017,2018-09-01,134
76037,20.280,5999,Фёдор,"рядом с проспект Любимова, 7",53.85803223,27.46974945,5,0,2017-05-11 2017,2018-09-01,134
76044,6.25,5999,Фёдор,"рядом с улица Космонавтов, 7 к1",53.85393143,27.47069931,7,0,2017-05-11 2017,2019-04-30,134
76046,6.25,5999,Фёдор,"рядом с улица Космонавтов, 7 к2",53.85382080,27.47109795,5,0,2017-05-11 2017,2019-02-01,134
76048,6.25,5999,Фёдор,"рядом с улица Космонавтов, 7 к2",53.85376740,27.47126198,5,0,2017-05-11 2017,2018-09-01,134
76050,20.280,5999,Фёдор,"рядом с проспект Любимова, 20",53.85968399,27.46576118,5,0,2017-05-11 2017,2018-09-01,134
76063,6.37,23152,Екатерина,"улица Одоевского, 38",53.90294647,27.48797989,5,0,2017-05-11 2017,2018-10-31,234
76069,6.36,9058,Anfiska,"проспект Пушкина, 93",53.92610168,27.50240707,5,0,2017-05-11 2017,2018-09-30,130
76077,6.29,18317,Дмитрий,"рядом с улица Червякова, 2 к2",53.92119217,27.55439377,5,0,2017-05-11 2017,2019-06-28,243
76125,6.25,36469,Дмитрий,улица Яна Чечота 11Минск,53.84940338,27.48002243,5,0,2017-05-11 2017,2018-09-01,134
76126,6.36,40657,Вадим,проспект Рокоссовского 49,53.86783218,27.60225296,5,0,2017-05-11 2017,2018-10-01,133
76176,20.293,8645,Г,улица Матусевича 69Минск,53.91679001,27.44427490,5,0,2017-05-12 2017,2019-09-30,177
76182,9.57,16476,Кристина,"улица Киселёва, 4",53.91025543,27.57350159,5,0,2017-05-12 2017,2018-10-30,131
76198,6.25,3760,Алексей,"рядом с Молочный переулок, 4",53.88955688,27.53797150,5,0,2017-05-12 2017,2018-09-01,134
76221,6.33,38735,Марина,улица Народная 13Минск,53.87591553,27.61700058,5,2,2017-05-12 2017,2018-09-01,164
76234,6.37,465,Елена,улица Уборевича 158Минск,53.83496857,27.61852646,5,0,2017-05-12 2017,2018-10-15,122
76256,20.283,1285,Евгений,"рядом с улица Притыцкого, 48",53.90887833,27.48040390,5,0,2017-05-12 2017,2019-06-29,145
76260,11.99,17360,Елена,"улица Гуртьева, 20",53.95899963,27.74194145,5,0,2017-05-12 2017,2018-08-31,127
76274,6.25,3309,Евгений,"рядом с улица Горовца, 34",53.86653900,27.61280251,5,0,2017-05-12 2017,2018-05-31,133
76346,20.280,13022,Марина,улица Каролинская 14Минск,53.85255051,27.49060059,5,0,2017-05-13 2017,2018-09-01,134
76406,6.26,1409,Евгений,"рядом с улица Лещинского, 47",53.91526794,27.44662476,5,0,2017-05-14 2017,2018-08-15,231
76478,6.37,35007,Петр,"улица Притыцкого, 26",53.91097641,27.49745369,5,0,2017-05-15 2017,2018-09-30,246
76483,20.294,9165,Дмитрий,улица Колесникова 4Минск,53.91731262,27.43754387,5,0,2017-05-14 2017,2019-12-01,150
76517,20.294,13264,Артур,улица Бобруйская 1Минск,53.89292145,27.54171753,5,0,2017-05-14 2017,2018-11-28,157
76520,20.294,13264,Артур,улица Клары Цеткин 5Минск,53.89331055,27.54113388,5,0,2017-05-14 2017,2019-12-31,157
76525,20.294,13264,Артур,1-й Извозный переулокМинск,53.89063263,27.52482986,5,0,2017-05-14 2017,2020-12-31,157
76526,20.294,13264,Артур,улица Хмелевского 12аМинск,53.88883591,27.52152252,5,0,2017-05-14 2017,2020-12-31,157
76527,20.296,2537,Андрей,улица Притыцкого 93Минск,53.90567780,27.43939400,5,0,2017-05-14 2017,2018-08-24,145
76542,20.294,13264,Артур,улица Воронянского 4аМинск,53.87804031,27.53840446,5,0,2017-05-14 2017,2017-12-12,135
76543,20.294,13264,Артур,улица Воронянского 4аМинск,53.87818909,27.53870964,5,0,2017-05-14 2017,2017-07-31,135
76545,20.294,13264,Артур,улица Воронянского 4/1Минск,53.87805939,27.54019547,5,0,2017-05-14 2017,2017-07-31,135
76571,6.29,22717,Наталия,улица Шугаева 21/2Минск 220141,53.93529510,27.68355560,5,0,2017-05-14 2017,2018-07-29,72
76630,6.26,14569,СЕРГЕЙ,"улица Селицкого, 79",53.83831406,27.70341682,5,0,2017-05-15 2017,2018-10-11,122
76636,6.37,25443,Ксения,"улица Гикало, 26",53.91117096,27.59400940,5,0,2017-05-15 2017,2019-06-29,128
76638,11.103,14569,СЕРГЕЙ,"улица Селицкого, 79",53.83831406,27.70341682,5,0,2017-05-15 2017,2018-09-30,222
76691,6.37,39172,Никита,"Краснослободская улица, 3 к1",53.84142685,27.63569450,5,0,2017-05-15 2017,2018-10-15,122
76773,6.36,38366,Алексей,улица Калиновского 53/2Минск,53.94794846,27.62841797,5,0,2017-05-16 2017,2018-11-30,127
76817,11.103,4549,Сергей,"улица Селицкого, 81",53.83876801,27.70413399,5,0,2017-05-16 2017,2018-09-30,222
76910,6.37,4972,Дзяніс,"рядом с улица Шугаева, 7",53.94023895,27.68001556,5,0,2017-05-17 2017,2018-07-30,72
76926,20.293,1191,Дмитрий,улица Лещинского 8/5Минск,53.91119003,27.45271301,7,0,2017-05-16 2017,2019-09-30,139
76949,20.294,40958,Аркадий,Партизанский проспект 2/2Минск,53.88619995,27.58218956,5,0,2017-05-16 2017,2018-12-25,161
76950,20.294,40958,Аркадий,Партизанский проспект 2/4Минск,53.88587189,27.58347130,5,0,2017-05-16 2017,2018-12-25,161
76951,20.294,40958,Аркадий,Партизанский проспект 4Минск,53.88571548,27.58387947,5,0,2017-05-16 2017,2018-12-25,161
76952,20.294,40958,Аркадий,Партизанский проспект 4Минск,53.88543701,27.58475304,5,0,2017-05-16 2017,2018-12-25,161
76995,22.306,38917,Л,"улица Чапаева, 4А",53.90301514,27.59006882,5,0,2017-05-17 2017,2019-03-04,136
77021,20.293,39603,Андрей,"рядом с Тиражная улица, 40",53.93918610,27.59294701,5,0,2017-05-17 2017,2018-11-01,159
77028,6.37,39603,Андрей,"Волгоградская улица, 1 к3",53.92891693,27.62477112,5,0,2017-05-17 2017,2019-03-15,127
77031,20.283,39603,Андрей,"рядом с Волгоградская улица, 1 к2",53.92844772,27.62530136,5,0,2017-05-17 2017,2019-06-29,147
77036,6.27,40674,Олег,улица Кальварийская 1Минск,53.90505600,27.53934669,5,0,2017-05-17 2017,2018-07-01,134
77085,20.296,17804,Аляксандр,"рядом с Шафарнянская улица, 1",53.95166779,27.67911148,5,0,2017-05-17 2017,2018-11-30,146
77086,20.293,40519,с,"рядом с Железнодорожная улица, 18А",53.88266754,27.52725983,5,0,2017-05-17 2017,2018-09-30,157
77087,20.293,17804,Аляксандр,"рядом с Шафарнянская улица, 1",53.95164490,27.67917442,5,0,2017-05-17 2017,2018-11-30,146
77089,20.294,17804,Аляксандр,"рядом с улица Карбышева, 42",53.95005035,27.63904953,5,0,2017-05-17 2017,2018-11-09,147
77090,20.294,40519,с,"рядом с Суражская улица, 8",53.88398361,27.53399086,5,0,2017-05-17 2017,2018-11-26,157
77128,20.293,18164,Евгений,"рядом с Слободской проезд, 4",53.84844589,27.44252205,5,0,2017-05-18 2017,2018-10-30,157
77145,6.371,26442,Алексей,улица Козыревская 35/1,53.86287689,27.56816292,5,0,2017-05-17 2017,2018-10-02,133
77207,20.293,30039,Даниил,"рядом с Грушевская улица, 102",53.88288498,27.51534271,7,0,2017-05-18 2017,2019-03-02,134
77243,20.294,703,Евгений,улица Кульман 2Минск,53.91934586,27.58481979,5,0,2017-05-18 2017,2018-11-26,138
77288,20.294,703,Евгений,улица Корш-Саблина 9Минск,53.93627167,27.59169197,5,0,2017-05-18 2017,2018-11-06,138
77306,20.296,35920,Галя,"рядом с улица Притыцкого, 46",53.90822983,27.48258781,5,0,2017-05-18 2017,2018-09-30,145
77308,6.37,35920,Галя,"рядом с улица Одинцова, 19",53.89862823,27.45031548,7,0,2017-05-18 2017,2019-08-19,145
77354,20.294,40958,Аркадий,около улица Мясникова 37Минск,53.89609909,27.54211807,5,0,2017-05-18 2017,2018-11-29,157
77357,20.294,40958,Аркадий,около улица Немига 5Минск,53.90287018,27.55032349,5,0,2017-05-18 2017,2019-06-01,140
77358,20.294,40958,Аркадий,улица Комсомольская 3Минск,53.90357971,27.55131149,5,0,2017-05-18 2017,2019-06-01,140
77401,6.25,36382,Дмитрий,"проспект Дзержинского, 11",53.88812637,27.52088356,5,0,2017-05-19 2017,2018-09-01,134
77403,20.294,40958,Аркадий,"рядом с улица Маяковского, 24",53.87688828,27.56882095,5,0,2017-05-19 2017,2018-12-25,161
77404,20.294,40958,Аркадий,"рядом с улица Маяковского, 79",53.87573242,27.56903648,5,0,2017-05-19 2017,2018-12-25,161
77405,20.294,40958,Аркадий,"рядом с Полевая улица, 24",53.87417221,27.57024765,5,0,2017-05-19 2017,2018-12-25,161
77406,20.294,40958,Аркадий,"рядом с улица Маяковского, 15",53.88209534,27.56847572,5,0,2017-05-19 2017,2018-12-25,161
77415,20.294,13264,Артур,"рядом с проспект Рокоссовского, 2",53.87531662,27.59615135,5,0,2017-05-19 2017,2018-12-25,161
77436,20.294,13264,Артур,"рядом с проспект Рокоссовского, 2",53.87593842,27.59482574,5,0,2017-05-19 2017,2018-12-25,161
77437,20.294,13264,Артур,"рядом с 2-й Велосипедный переулок, 28",53.87565231,27.59232521,5,0,2017-05-19 2017,2018-12-25,161
77442,20.294,13264,Артур,"рядом с Денисовская улица, 41",53.87310028,27.57469559,5,0,2017-05-19 2017,2018-12-25,161
77443,20.294,13264,Артур,"рядом с Денисовская улица, 35",53.87287521,27.57166862,5,0,2017-05-19 2017,2018-12-25,161
77444,20.294,13264,Артур,"рядом с Денисовская улица, 35",53.87285233,27.57106018,5,0,2017-05-19 2017,2018-12-25,161
77445,20.294,13264,Артур,"рядом с улица Маяковского, 100",53.87273788,27.56915092,5,0,2017-05-19 2017,2018-12-25,161
77446,20.294,13264,Артур,"рядом с улица Маяковского, 100",53.87270737,27.56859589,5,0,2017-05-19 2017,2018-12-25,161
77447,20.294,13264,Артур,"рядом с Денисовская улица, 3",53.87236023,27.56478691,5,0,2017-05-19 2017,2018-12-25,161
77449,6.29,26897,Роса,"улица Селицкого, 73",53.83835220,27.70130348,5,0,2017-05-19 2017,2018-09-30,222
77501,6.29,18317,Дмитрий,"рядом с улица Червякова, 2 к2",53.92120361,27.55449295,5,0,2017-05-19 2017,2018-09-30,243
77524,20.294,41118,Илья,"рядом с улица Бельского, 4",53.90795517,27.47886658,7,0,2017-05-19 2017,2019-01-21,181
77554,20.294,41118,Илья,"рядом с улица Притыцкого, 40",53.90933990,27.48764610,5,0,2017-05-19 2017,2019-12-01,150
77555,20.294,41118,Илья,"рядом с улица Притыцкого, 38",53.90940475,27.48872375,5,0,2017-05-19 2017,2019-12-01,150
77613,6.36,41180,Елена,"улица Жудро, 6",53.91005325,27.48199463,5,0,2017-05-20 2017,2018-07-31,130
77622,6.29,3567,Павел,"Каменногорская улица, 26",53.91399002,27.41673088,5,0,2017-05-21 2017,2018-12-31,130
77629,6.36,35124,Карина,улица Скрипникова 46,53.90010834,27.42626572,5,0,2017-05-20 2017,2018-09-29,129
77689,6.26,27238,Константин,улица Розы Люксембург 152Минск,53.89044189,27.50897026,5,0,2017-05-20 2017,2018-12-31,124
77767,6.37,8665,Михаил,улица Филимонова 43Минск,53.92243958,27.63598061,5,0,2017-05-21 2017,2019-06-29,127
77782,6.25,41213,Елена,"улица Рафиева, 90",53.85979462,27.43367004,7,0,2017-05-22 2017,2019-04-30,134
77843,20.294,40958,Аркадий,"рядом с улица Маяковского, 168",53.86196518,27.57138062,5,0,2017-05-22 2017,2018-12-25,161
77844,20.294,40958,Аркадий,"рядом с улица Маяковского, 172",53.86068726,27.57169151,5,0,2017-05-22 2017,2018-12-25,161
77845,20.294,40958,Аркадий,"рядом с улица Маяковского, 174",53.85976028,27.57182503,5,0,2017-05-22 2017,2018-12-25,161
77846,20.294,40958,Аркадий,"рядом с улица Маяковского, 176",53.85687256,27.57230759,5,0,2017-05-22 2017,2018-12-25,161
77847,20.294,40958,Аркадий,"рядом с улица Маяковского, 182",53.85581970,27.57203293,5,0,2017-05-22 2017,2018-12-25,161
77849,20.294,40958,Аркадий,"рядом с улица Маяковского, 188",53.85519409,27.57181358,5,0,2017-05-22 2017,2018-12-25,161
77853,20.294,40958,Аркадий,улица НемигаМинск,53.89749527,27.54049301,5,0,2017-05-22 2017,2018-11-26,157
77854,20.294,40958,Аркадий,улица СёменоваМинск,53.87046814,27.56938744,5,0,2017-05-22 2017,2018-12-25,161
77857,20.294,40958,Аркадий,"рядом с улица Чижевских, 1",53.85087204,27.57078743,5,0,2017-05-22 2017,2018-12-25,161
77860,20.294,40958,Аркадий,"рядом с Игуменский тракт, 16",53.84598541,27.56861305,5,0,2017-05-22 2017,2018-12-25,161
77864,6.36,1474,Олег,"рядом с улица Яна Чечота, 36",53.84791946,27.48247528,7,0,2017-05-22 2017,2019-04-15,134
77873,20.294,13264,Артур,"рядом с Игуменский тракт, 11",53.84606552,27.56928635,5,0,2017-05-22 2017,2018-10-26,133
77874,20.294,13264,Артур,"рядом с Игуменский тракт, 11",53.84757614,27.56978798,5,0,2017-05-22 2017,2018-12-25,161
77877,20.294,13264,Артур,"рядом с переулок Чижевских, 15",53.84828568,27.57023048,5,0,2017-05-22 2017,2018-12-25,161
77878,20.294,13264,Артур,"рядом с улица Чижевских, 1",53.85063934,27.57170105,5,0,2017-05-22 2017,2018-09-28,253
77883,20.294,13264,Артур,"рядом с Денисовская улица, 8-2",53.87090302,27.57110786,5,0,2017-05-22 2017,2018-12-25,161
77941,6.37,19080,Андрей,"улица Притыцкого, 26",53.91097641,27.49745369,5,0,2017-05-22 2017,2018-09-30,246
77959,11.369,20678,Ольга,"улица Карла Либкнехта, 84 к2, кв.25",53.89568710,27.52290726,5,0,2017-05-22 2017,2018-10-15,124
77978,20.294,13264,Артур,"рядом с Пожарная улица, 1А",53.88486862,27.56734276,5,0,2017-05-22 2017,2018-12-25,161
77979,20.294,13264,Артур,"рядом с улица Маяковского, 8",53.88377380,27.56752205,5,0,2017-05-22 2017,2018-12-25,161
77980,20.294,13264,Артур,"рядом с улица Маяковского, 10",53.88325119,27.56754494,5,0,2017-05-22 2017,2018-12-25,161
77981,20.294,13264,Артур,"рядом с улица Маяковского, 10",53.88265228,27.56760216,5,0,2017-05-22 2017,2018-12-25,161
77982,20.294,13264,Артур,"рядом с улица Маяковского, 14",53.88222122,27.56762505,5,0,2017-05-22 2017,2018-12-25,161
77983,20.294,13264,Артур,"рядом с улица Маяковского, 16",53.88060379,27.56770325,5,0,2017-05-22 2017,2018-12-25,161
77984,20.294,13264,Артур,"рядом с улица Маяковского, 18",53.87921143,27.56777954,5,0,2017-05-23 2017,2018-12-25,161
77985,20.294,13264,Артур,"рядом с улица Маяковского, 100",53.87468338,27.56841278,5,0,2017-05-23 2017,2018-12-25,161
77986,20.294,13264,Артур,"рядом с Денисовская улица, 5",53.87250137,27.56645203,5,0,2017-05-23 2017,2018-12-25,161
78032,9.55,6515,Ольга,улица Денисовская 9Минск,53.87298203,27.56743050,5,0,2017-05-22 2017,2018-07-31,227
78033,20.283,527,Вадзім,улица Чюрлёниса 16Минск,53.85612106,27.48244476,5,1,2017-05-22 2017,2018-07-01,134
78052,11.99,9140,Андрей,"Минск,  улица Янки Купалы,  7",53.90074921,27.56955719,5,0,2017-05-22 2017,2018-07-30,123
78074,6.25,41262,Екатерина,улица Рафиева 90,53.85956955,27.43360329,5,0,2017-05-22 2017,2018-09-01,134
78108,20.294,172,Сергей,vulica Hurskaha 30,53.88397217,27.48137093,5,0,2017-05-23 2017,2018-11-27,157
78110,20.294,172,Сергей,praspiekt Haziety Praŭda 25а,53.86361694,27.48090363,5,0,2017-05-23 2017,2018-11-28,157
78118,11.104,41223,Леонид,"Цнянская улица, 7",53.92316055,27.58160019,5,0,2017-05-23 2017,2018-08-31,240
78130,6.325,8352,Уладзімір,"улица Щорса, 11",53.88575363,27.51495934,5,0,2017-05-23 2017,2019-03-31,249
78166,6.37,39603,Андрей,"рядом с улица Судмалиса, 16",53.88928223,27.58546638,5,0,2017-05-23 2017,2018-12-31,123
78188,20.296,41318,Егор,"рядом с улица Притыцкого, 48",53.90874863,27.48006439,5,0,2017-05-23 2017,2018-09-30,182
78200,6.36,13621,Валерий,"улица Ольшевского, 74",53.92503357,27.48819733,5,0,2017-05-23 2017,2018-12-28,130
78231,11.103,37728,Андрей,"улица Яна Чечота, 11",53.84954453,27.48081017,5,0,2017-05-24 2017,2018-12-31,124
78270,20.280,17696,Татьяна,"рядом с проспект Любимова, 7",53.85759354,27.46969414,5,0,2017-05-24 2017,2018-12-01,134
78327,6.37,3055,Михаил,улица 50 лет Победы 18,53.94902802,27.71829224,5,0,2017-05-24 2017,2018-12-14,127
78353,6.25,4051,Arsen,"рядом с Нёманская улица, 9",53.91085434,27.42573547,5,0,2017-05-24 2017,2018-12-01,247
78367,6.25,31869,Дмитрий,"рядом с улица Короля, 51",53.90454865,27.53466988,7,0,2017-05-24 2017,2019-04-30,134
78368,6.37,36704,Александр,"рядом с улица Голодеда, 5 к2",53.84040451,27.64797592,5,1,2017-05-24 2017,2018-10-10,122
78391,6.37,4972,Дзяніс,"рядом с улица Пономаренко, 52",53.89431763,27.47843361,5,0,2017-05-24 2017,2019-12-01,150
78399,6.37,1101,Леонид,"рядом с улица Лещинского, 27",53.91176987,27.45042992,5,0,2017-05-24 2017,2018-10-18,145
78520,20.293,41395,Эдуард,"рядом с улица Брикета, 31",53.90189362,27.40826416,5,0,2017-05-25 2017,2018-09-03,139
78535,11.99,26985,Ольга,"Минск,  улица Киселёва,  28",53.91482162,27.56359291,5,0,2017-05-25 2017,2018-12-31,131
78537,20.293,22256,Роман,"рядом с улица Брикета, 31",53.90165329,27.40835953,5,0,2017-05-25 2017,2018-09-03,139
78587,6.36,41417,Юлия,"рядом с улица Гинтовта, 32",53.95175171,27.68444061,5,0,2017-05-25 2017,2018-09-24,127
78594,20.293,8170,Мечыслаў,"рядом с Долгобродская улица, 16",53.89670181,27.60668373,5,0,2017-05-25 2017,2019-06-29,152
78626,6.25,38811,Елена,"рядом с Слободская улица, 25",53.85832596,27.43224335,5,0,2017-05-25 2017,2018-09-01,134
78627,6.25,38811,Елена,"рядом с Слободская улица, 25",53.85831833,27.43209076,5,0,2017-05-25 2017,2018-09-01,134
78637,20.294,3446,Татьяна,"рядом с улица Бельского, 2",53.90661621,27.48126793,5,0,2017-05-25 2017,2019-06-30,150
78661,20.294,20245,Татьяна,"улица Седых, 30",53.95134354,27.62819862,5,0,2017-05-26 2017,2018-12-03,147
78667,20.293,9165,Дмитрий,улица Брикета 31Минск,53.90190887,27.40910721,5,0,2017-05-25 2017,2018-09-03,139
78689,6.37,40163,Петр,"улица Варвашени, 8 к3",53.86580658,27.67544937,5,0,2017-05-26 2017,2018-07-31,122
78783,20.294,13264,Артур,"рядом с Партизанский проспект, 21",53.88333511,27.59341431,5,0,2017-05-26 2017,2018-12-25,161
78786,20.294,13264,Артур,"рядом с Партизанский проспект, 12",53.88082123,27.60084152,5,0,2017-05-26 2017,2018-10-01,158
78787,20.294,13264,Артур,"рядом с Партизанский проспект, 45",53.87940979,27.60611534,5,0,2017-05-26 2017,2018-10-01,158
78788,20.294,13264,Артур,"рядом с Партизанский проспект, 45",53.87962341,27.60653305,5,0,2017-05-26 2017,2018-08-31,152
78789,20.294,13264,Артур,"рядом с улица Ванеева, 24",53.88008499,27.61069679,5,0,2017-05-26 2017,2018-10-10,152
78803,20.294,40958,Аркадий,"рядом с Партизанский проспект, 46",53.87526703,27.62419701,5,0,2017-05-26 2017,2018-10-01,158
78805,20.294,40958,Аркадий,"рядом с Партизанский проспект, 46",53.87544250,27.62392426,5,0,2017-05-26 2017,2018-10-01,158
78806,20.294,40958,Аркадий,"рядом с Партизанский проспект, 36",53.87641144,27.61916351,5,0,2017-05-26 2017,2018-10-01,158
78807,20.294,40958,Аркадий,"рядом с Партизанский проспект, 34 к1",53.87653351,27.61890411,5,0,2017-05-26 2017,2018-10-01,158
78809,20.294,40958,Аркадий,"рядом с Партизанский проспект, 26/2",53.87710953,27.60690880,5,0,2017-05-26 2017,2018-12-25,161
78837,6.26,41467,Екатерина,"улица Сергея Есенина, 19А",53.84922791,27.46010208,5,0,2017-05-26 2017,2018-09-30,124
78850,11.369,38300,Pod&#039;ezd,"Харьковская улица, 58",53.90040588,27.51336098,5,0,2017-05-26 2017,2018-09-30,129
78866,6.324,12421,Максим,"проспект Пушкина, 23",53.89910126,27.49618149,5,0,2017-05-26 2017,2018-09-30,232
78929,6.37,1639,Григорий,"улица Притыцкого, 106",53.90833282,27.44116783,5,0,2017-05-27 2017,2018-11-20,179
78971,20.294,17261,Илья,улица Янковского 3Минск,53.88068390,27.44034576,5,0,2017-05-27 2017,2019-12-01,150
78980,6.26,41496,Елена,"улица Голубева, 19",53.86462021,27.46982193,5,0,2017-05-27 2017,2018-06-30,134
78990,20.293,17261,Илья,улица Харьковская 14AМинск,53.90326309,27.52215385,5,0,2017-05-27 2017,2019-12-01,150
78991,20.294,17261,Илья,1-й Загородный переулок 16Минск,53.90631485,27.52133942,5,0,2017-05-27 2017,2019-12-01,150
78992,20.294,17261,Илья,улица Кальварийская 27Минск,53.90676117,27.52067566,5,0,2017-05-27 2017,2019-12-01,150
78993,20.294,17261,Илья,улица Короля 71Минск,53.90456772,27.52949524,5,0,2017-05-27 2017,2018-11-26,157
78994,20.294,17261,Илья,улица Клары Цеткин 51Минск,53.90468979,27.53234291,5,0,2017-05-27 2017,2018-11-26,157
78995,20.294,17261,Илья,"ул. Короля 51, Минск, Беларусь",53.90471649,27.53291702,5,0,2017-05-27 2017,2018-12-07,157
78996,20.294,40958,Аркадий,улица Колесникова 1Минск,53.91707993,27.43641281,5,0,2017-05-27 2017,2019-12-01,150
79001,6.26,9463,Сергей,улица Слободская 107Минск,53.84702682,27.44827080,5,0,2017-05-27 2017,2018-09-30,124
79046,6.25,584,Антон,"рядом с улица Кропоткина, 97",53.92599106,27.56143379,5,0,2017-05-28 2017,2018-05-01,140
79074,6.37,5361,Максим,улица Сердича 30Минск,53.91814423,27.49193764,5,0,2017-05-27 2017,2018-12-31,130
79099,20.294,17261,Илья,улица Колесникова 20Минск,53.92027283,27.43821907,5,0,2017-05-27 2017,2019-12-01,150
79100,6.25,41169,Василий,улица Одинцова 43  Минск,53.89723206,27.44236565,5,0,2017-05-27 2017,2018-10-01,139
79103,6.25,41511,Юрий,"ул. Громова 38, Минск, Беларусь",53.85232544,27.44006348,5,0,2017-05-27 2017,2018-09-01,134
79124,20.294,17804,Аляксандр,"рядом с улица Гинтовта, 18",53.94985580,27.67361832,5,0,2017-05-28 2017,2018-07-20,147
79151,6.37,38176,Светлана,"рядом с улица Лещинского, 51",53.91558456,27.44659042,5,0,2017-05-28 2017,2018-08-15,231
79158,20.290,6832,Юрий,"рядом с проспект Жукова, 29",53.88414001,27.50646782,5,0,2017-05-28 2017,2018-11-02,157
79190,20.294,17261,Илья,проезд Бетонный 2Минск,53.89632797,27.50394440,5,0,2017-05-28 2017,2019-12-01,150
79191,20.294,17261,Илья,улица Харьковская 72Минск,53.89823151,27.50666237,5,0,2017-05-28 2017,2019-12-01,150
79195,20.294,16020,Александр,улица Притыцкого 38Минск,53.90917969,27.48876381,5,0,2017-05-28 2017,2019-12-01,150
79277,6.25,12819,Сергей,улица Есенина 11Минск,53.84857178,27.46097755,5,0,2017-05-29 2017,2018-09-01,134
79338,6.37,39603,Андрей,"улица Серафимовича, 21",53.88716125,27.58948517,5,0,2017-05-29 2017,2018-12-31,123
79341,6.37,39603,Андрей,"рядом с улица Серафимовича, 21",53.88731384,27.58968735,5,0,2017-05-29 2017,2018-12-31,123
79343,6.37,39603,Андрей,"рядом с улица Серафимовича, 21",53.88724136,27.58919716,5,0,2017-05-29 2017,2018-12-31,123
79347,20.294,703,Евгений,улица Герцена 12Минск,53.90658188,27.55807114,5,0,2017-05-29 2017,2018-07-27,248
79384,11.98,39603,Андрей,"улица Серафимовича, 10",53.88719940,27.58863258,5,0,2017-05-29 2017,2018-09-29,123
79386,6.37,39603,Андрей,"рядом с улица Серафимовича, 10",53.88766479,27.58811760,5,0,2017-05-29 2017,2018-12-31,123
79411,9.55,18016,Ольга,"улица Данилы Сердича, 64",53.91927719,27.48901749,5,0,2017-05-29 2017,2018-08-16,245
79442,6.37,278,Андрей,"рядом с улица Лермонтова, 20А",53.88926697,27.51678848,5,0,2017-05-30 2017,2018-09-30,124
79452,6.26,13765,Сергей,улица Якубовского 17Минск,53.90163040,27.45410347,5,0,2017-05-29 2017,2018-11-30,129
79535,6.325,39791,Денис,улица Комсомольская 13,53.90345383,27.55170631,5,0,2017-05-30 2017,2018-09-29,248
79581,20.294,122,Наблюдает,улица Смоленская 15Минск,53.89175034,27.58532333,5,0,2017-05-30 2017,2018-09-29,152
79587,20.294,122,Наблюдает,улица Смоленская 27Минск,53.89263153,27.58786583,5,0,2017-05-30 2017,2018-10-31,152
79588,20.294,122,Наблюдает,улица Смоленская 31Минск,53.89293671,27.58875847,5,0,2017-05-30 2017,2018-10-31,152
79590,6.26,4050,Владимир,улица Космонавтов 29Минск,53.84885406,27.45758247,5,0,2017-05-30 2017,2018-09-30,124
79595,20.294,122,Наблюдает,улица Первомайская 18Минск,53.90024567,27.57431030,5,0,2017-05-30 2017,2018-11-09,165
79598,6.37,122,Наблюдает,переулок Нагорный 5Минск,53.89561844,27.58471489,5,0,2017-05-30 2017,2018-11-15,126
79600,20.294,122,Наблюдает,улица Соломенная 13Минск,53.89800262,27.58416557,5,0,2017-05-30 2017,2018-11-30,152
79606,20.294,122,Наблюдает,улица Комсомольская 28Минск,53.90005875,27.55472946,5,0,2017-05-30 2017,2018-12-31,162
79638,6.25,16679,Ya,"улица Рафиева, 31 к2",53.86590195,27.45679092,5,0,2017-05-30 2017,2018-09-01,134
79639,6.25,1535,Дмитрий,"рядом с улица Мазурова, 27",53.89504623,27.41788864,5,0,2017-05-30 2017,2018-10-18,233
79685,20.294,122,Наблюдает,улица Володарского 3Минск,53.89904404,27.54969597,5,0,2017-05-30 2017,2018-11-26,157
79730,11.103,41666,Эдуард,"Коммунистическая улица, 3",53.91163635,27.56529427,5,0,2017-05-31 2017,2018-08-31,131
79731,6.37,7596,Александр,"рядом с улица Лещинского, 17",53.91082001,27.45096588,5,0,2017-05-31 2017,2019-06-29,145
79747,20.280,2890,Мария,2-й Велосипедный переулок 30Минск,53.87133789,27.59102821,5,0,2017-05-30 2017,2018-05-25,133
79755,6.29,25648,анастасия,"улица Лобанка, 50",53.89727783,27.42993927,5,0,2017-05-31 2017,2018-09-30,233
79843,6.25,41063,Александр,улица Варвашени 22/1Минск,53.86687088,27.67743683,5,0,2017-05-31 2017,2018-08-05,132
79863,11.104,41699,Елена,"улица 50 лет Победы, 1 к1 п.1",53.94687653,27.72012901,5,0,2017-05-31 2017,2018-08-31,127
79878,9.55,29625,Денис,"улица Пимена Панченко, 60",53.88999557,27.41585922,5,0,2017-05-31 2017,2018-09-30,233
79951,20.294,40958,Аркадий,"рядом с Брилевская улица, 21",53.87467194,27.52908707,5,0,2017-05-31 2017,2018-09-28,160
79952,20.296,8518,Денис,"рядом с улица Чайлытко, 22",53.88693619,27.43585587,5,0,2017-05-31 2017,2018-11-30,145
80062,6.26,5255,Дмитрий,улица Слободская 175,53.84615707,27.46774673,5,0,2017-05-31 2017,2018-09-30,124
80063,6.26,5255,Дмитрий,улица Слободская 179,53.84654617,27.46790123,5,0,2017-05-31 2017,2018-09-30,124
80082,20.280,5255,Дмитрий,улица Слободская 177,53.84601593,27.46974182,5,0,2017-05-31 2017,2018-12-01,134
80083,20.280,5255,Дмитрий,улица Слободская 167,53.84482956,27.46758842,5,0,2017-05-31 2017,2018-12-01,134
80085,20.293,5255,Дмитрий,улица Слободская 163,53.84444046,27.46546173,5,0,2017-05-31 2017,2018-10-10,157
80086,6.25,5255,Дмитрий,улица Слободская 157,53.84442139,27.46465302,5,0,2017-05-31 2017,2018-12-01,134
80100,11.99,38669,Екатерина,улица Почтовая 7,53.94342041,27.70682526,5,0,2017-05-31 2017,2018-08-30,127
80113,6.26,13448,Валерий,улица Казинца 97/1Минск,53.84673309,27.50916100,5,0,2017-05-31 2017,2018-11-09,179
